stop_lat,stop_lon,stop_id,stop_name
18.6151527,54.3757843,2018,Miszewskiego
18.6030332,54.3798817,2022,Klonowa
18.5987318,54.3821912,2024,Galeria Bałtycka
18.5908197,54.387051,2026,Wojska Polskiego
18.5659212,54.4099191,2046,Oliwa
18.5629806,54.4083748,2043,Obrońców Westerplatte
18.5671004,54.4100121,2045,Oliwa
18.563912,54.4050693,2041,Derdowskiego
18.5656803,54.4027016,2039,Tetmajera
18.5686061,54.3988472,2037,Bażyńskiego
18.5717146,54.3957288,2035,Uniwersytet
18.5776677,54.3911956,2033,Strzyża PKM
18.5815637,54.3884078,2030,Zajezdnia
18.5850928,54.3869011,2028,Zamenhofa
18.578205,54.3911394,213,Strzyża PKM
18.6415532,54.3620657,2006,Brama Oliwska
18.6986355,54.3629887,2124,Kaczeńce
18.6643353,54.3446413,2110,Akademia Muzyczna
18.6693956,54.3477379,2114,Brama Żuławska
18.646072,54.350397,2101,Brama Wyżynna
18.64668,54.3475475,2104,Okopowa
18.6514455,54.3466237,2106,Żabi Kruk
18.6572415,54.3454418,2108,Chmielna
18.6311265,54.3742233,2068,Twarda
18.6477074,54.3605156,2062,Plac Solidarności
18.6434162,54.3566863,2135,Dworzec PKS
18.6322609,54.4084548,2188,Mazurska
18.5734268,54.4167747,2050,Subisława
18.6383444,54.3639912,2008,Chodowieckiego
18.6908572,54.35982,2122,Sucharskiego
18.7281134,54.3730741,207,Stogi Plaża
18.7154956,54.3622992,2130,Stogi Pasanil
18.7041081,54.3628911,2126,Lessowa
18.6866096,54.3578387,2120,Lenartowicza
18.6716413,54.3522384,2116,Głęboka
18.6285111,54.4090414,2186,Wczasy
18.6225269,54.3789706,2073,Reja
18.6218356,54.3828655,2076,Mickiewicza
18.6224301,54.3881647,2173,Kościuszki
18.6235133,54.376468,2072,Wyspiańskiego
18.6263743,54.3753579,2070,Kliniczna - Szpital
18.6021074,54.3942798,2086,Jana Pawła II
18.6214115,54.3740245,2016,Politechnika
18.5950777,54.3991883,203,Zaspa
18.6085095,54.3896452,2082,Bajana
18.6057589,54.3921417,2083,Żwirki i Wigury
18.6143794,54.3837859,2077,Plac Komorowskiego
18.6106785,54.3871568,2079,Legionów
18.6331317,54.3787112,2156,Swojska
18.6576441,54.3922287,2164,Śnieżna
18.6663759,54.3984609,2165,Wyzwolenia - Marynarki Polskiej
18.6426475,54.3646603,2064,Stocznia SKM
18.5655684,54.4136018,2048,Opacka
18.5656889,54.4138914,2047,Opacka
18.6061843,54.3785278,2021,Jaśkowa Dolina
18.6456565,54.3554296,2001,Dworzec Główny
18.645486,54.3554449,2002,Dworzec Główny
18.6453904,54.3518265,2138,Hucisko
18.645388,54.3519132,2137,Hucisko
18.6056362,54.3224515,2231,Łostowice Świętokrzyska
18.6336208,54.3667948,2010,Uniwersytet Medyczny
18.6297261,54.3691043,2012,Traugutta
18.6447674,54.3857299,2160,Mostostal
18.6489712,54.3874142,2162,PGE Arena Gdańsk
18.623565,54.3764725,2071,Wyspiańskiego
18.6263757,54.3753923,2069,Kliniczna - Szpital
18.5950486,54.3991065,2090,Zaspa
18.5946862,54.399562,2089,Zaspa
18.6415918,54.3620888,2005,Brama Oliwska
18.6383914,54.3640076,2007,Chodowieckiego
18.6433679,54.3566735,2136,Dworzec PKS
18.5987844,54.3822081,2025,Galeria Bałtycka
18.6030727,54.3799042,2023,Klonowa
18.6152462,54.3758086,2019,Miszewskiego
18.6297609,54.3691197,2011,Traugutta
18.6336712,54.3668123,2009,Uniwersytet Medyczny
18.5907622,54.3870742,2027,Wojska Polskiego
18.5815611,54.3884936,2031,Zajezdnia
18.5850213,54.3869262,2029,Zamenhofa
18.5776393,54.3912017,2034,Strzyża PKM
18.5680839,54.399385,2038,Bażyńskiego
18.5636256,54.405583,2042,Derdowskiego
18.5629497,54.4082787,2044,Obrońców Westerplatte
18.5656167,54.4026988,2040,Tetmajera
18.5716655,54.3957165,2036,Uniwersytet
18.6643096,54.3445977,2109,Akademia Muzyczna
18.646108,54.3503731,2102,Brama Wyżynna
18.6694467,54.34775,2113,Brama Żuławska
18.6572299,54.3454062,2107,Chmielna
18.6716591,54.3522078,2115,Głęboka
18.6466341,54.3475186,2103,Okopowa
18.6830293,54.3574815,2118,Przeróbka
18.6824833,54.3572948,2117,Przeróbka
18.6514118,54.3465963,2105,Żabi Kruk
18.6477421,54.3605579,2061,Plac Solidarności
18.6426846,54.3646742,2063,Stocznia SKM
18.6366652,54.3511156,2140,Powstańców Warszawskich
18.5734842,54.416762,2049,Subisława
18.6014917,54.3946981,2085,Jana Pawła II
18.6049819,54.3384515,2223,Cebertowicza
18.6056578,54.3383904,2224,Cebertowicza
18.5989366,54.3364243,2226,Wilanowska
18.596371,54.3330699,2227,Przemyska
18.5989003,54.3288233,2229,Płocka
18.6184913,54.3384761,2217,Sikorskiego
18.598662,54.329113,2230,Płocka
18.5964147,54.3333744,2228,Przemyska
18.6441567,54.3477071,2208,Śródmieście SKM
18.644157,54.3477433,2207,Śródmieście SKM
18.6371202,54.3486654,2212,Pohulanka (Armii Krajowej)
18.6363412,54.3486434,2211,Pohulanka (Armii Krajowej)
18.5671558,54.4096338,202,Oliwa
18.6214827,54.3740237,2017,Politechnika
18.6224769,54.3789659,2074,Reja
18.638346,54.3823136,2158,Żaglowa - AmberExpo
18.6443132,54.4061611,2191,Krasickiego
18.673215,54.3979346,2168,Zajezdnia Nowy Port (dla wysiad.)
18.5993515,54.3367916,2225,Wilanowska
18.6263097,54.3454116,2214,Odrzańska
18.6240346,54.404028,2184,Dworska
18.5738896,54.3655297,2268,Brętowo PKM
18.6102646,54.3382515,2221,Cieszyńskiego
18.6102848,54.3381415,2222,Cieszyńskiego
18.6177477,54.337748,220,Chełm Witosa
18.6184663,54.3388203,2218,Sikorskiego
18.6450717,54.3858141,2159,Mostostal
18.6192433,54.348809,2146,Zakopiańska
18.618457,54.3488019,2145,Zakopiańska
18.5844541,54.4192822,2100,Pomorska
18.5840657,54.4196547,2099,Pomorska
18.5915081,54.4034644,2091,Kołobrzeska
18.5910432,54.4042843,2092,Kołobrzeska
18.5891898,54.4080547,2093,Chłopska - Obrońców Wybrzeża
18.5887662,54.4089663,2094,Chłopska - Obrońców Wybrzeża
18.5879582,54.4119221,2095,Jagiellońska
18.5877954,54.4125541,2096,Jagiellońska
18.5870261,54.4156213,2097,Piastowska
18.5867374,54.4163655,2098,Piastowska
18.584123,54.4203235,2056,Osiedle Wejhera
18.5848115,54.4205052,2055,Osiedle Wejhera
18.6081803,54.3900483,2081,Bajana
18.6994023,54.3632405,2123,Kaczeńce
18.6109184,54.3868051,2080,Legionów
18.6866351,54.3578219,2119,Lenartowicza
18.7040904,54.3628641,2125,Lessowa
18.6205924,54.383356,2075,Mickiewicza
18.6219698,54.3840497,2171,Mickiewicza
18.6146826,54.3833947,2078,Plac Komorowskiego
18.6340713,54.3716587,2066,Stocznia Północna
18.6337749,54.3719894,2065,Stocznia Północna
18.7146785,54.3614004,2129,Stogi Pasanil
18.6908785,54.3597911,2121,Sucharskiego
18.6312508,54.3744754,2067,Twarda
18.6305767,54.3763643,2154,Węzeł Kliniczna
18.6308076,54.3766966,2153,Węzeł Kliniczna
18.7085241,54.3607015,2127,Zimna
18.710011,54.3607037,2128,Zimna
18.6062485,54.3917912,2084,Żwirki i Wigury
18.5758437,54.3525904,2263,Migowo
18.6068356,54.3782018,2020,Jaśkowa Dolina
18.5880128,54.421525,2058,Helska
18.5885614,54.4216585,2057,Helska
18.5980318,54.3967138,2088,Startowa
18.5975689,54.3970427,2087,Startowa
18.6177436,54.3415117,2215,Chałubińskiego
18.6176705,54.3419461,2216,Chałubińskiego
18.6256213,54.3454119,2213,Odrzańska
18.624068,54.349087,2143,Ciasna
18.6247964,54.3491738,2144,Ciasna
18.6296835,54.3499888,2141,Paska
18.6304071,54.3501101,2142,Paska
18.5822883,54.4197374,2054,Gospody
18.577513,54.4180998,2051,Pomorska - Osiedle
18.5778983,54.4182658,2052,Pomorska - Osiedle
18.6421896,54.3520746,2132,Nowe Ogrody
18.6423314,54.3526483,2151,Nowe Ogrody
18.6359728,54.3510855,2139,Powstańców Warszawskich
18.5955156,54.3998259,204,Zaspa
18.6395418,54.4072622,2189,Brzeźno
18.6436964,54.4063569,2192,Krasickiego
18.6384964,54.407325,2190,Brzeźno
18.6380719,54.4073404,210,Brzeźno
18.655219,54.4046276,2194,Latarnia Morska
18.6559726,54.4047085,2193,Latarnia Morska
18.6489972,54.3873849,2161,PGE Arena Gdańsk
18.6702484,54.3989893,2167,Plac Wolności
18.6345812,54.3796526,2155,Swojska
18.6663289,54.3984704,2166,Wyzwolenia - Marynarki Polskiej
18.657302,54.3919211,2163,Śnieżna
18.6387837,54.3825475,2157,Żaglowa - AmberExpo
18.7157317,54.3630441,2131,Rozłogi
18.6123178,54.3490728,2147,Skrajna
18.6129812,54.3490074,2148,Skrajna
18.6070481,54.3481142,2149,Siedlce
18.6072114,54.3483448,2150,Siedlce
18.5831774,54.357667,2270,Warneńska
18.581974,54.3576987,2269,Warneńska
18.5927145,54.4232033,201,Jelitkowo
18.6614158,54.4039664,2195,Kasztanowa
18.6611651,54.4040731,2196,Kasztanowa
18.6696837,54.4022196,2200,Przychodnia
18.664909,54.4023407,2197,Rybołowców
18.6655522,54.402661,2198,Rybołowców
18.674352,54.398703,2169,Władysława IV
18.6223525,54.3922643,2174,Kolonia Uroda
18.6224176,54.3926919,2175,Kolonia Uroda
18.6223718,54.3881555,2172,Kościuszki
18.6710005,54.4000476,208,Nowy Port (Góreckiego)
18.6755059,54.401259,209,Nowy Port (Oliwska)
18.6224304,54.4016623,2179,Al. Hallera
18.6230793,54.4026778,2178,Al. Hallera
18.63114,54.4025329,2181,Gdańska
18.622308,54.3961043,2176,Grudziądzka
18.6223641,54.3964512,2177,Grudziądzka
18.6345751,54.4046874,2183,Sternicza
18.6262206,54.4002891,2187,Uczniowska
18.624716495755361,54.372183687601584,2013,Opera Bałtycka
18.577758366873926,54.360060787293399,2266,Kolumba
18.577801261931715,54.360071727102529,2267,Kolumba
18.588314408165207,54.355725335354208,2272,Belgradzka
18.58835733648792,54.355741596060305,2271,Belgradzka
18.592172591169483,54.351559246840537,2274,Piekarnicza
18.592221958740602,54.351575509229193,2273,Piekarnicza
18.578847639797832,54.356138731361732,2265,Budapesztańska
18.57877036881694,54.356158744377687,2264,Budapesztańska
18.624607085399042,54.372132275165889,2014,Opera Bałtycka
18.62464357447335,54.372148529411731,2015,Opera Bałtycka
18.616788106111027,54.337361064094132,2219,Chełm Witosa
18.6067104,54.3230851,221,Łostowice Świętokrzyska
18.606505,54.3482885,205,Siedlce
18.5739980341449,54.365493731059154,224,Brętowo PKM
